icao,name,lat,lon
SBGR,Guarulhos,-23.4356,-46.4731
SBSP,Congonhas,-23.6261,-46.6564
SBRJ,Santos Dumont,-22.9105,-43.1631
SBGL,Galeao,-22.8090,-43.2506
SBSV,Salvador,-12.9086,-38.3225
SBBR,Brasilia,-15.8697,-47.9208
SBEG,Manaus,-3.0386,-60.0497
SBCT,Curitiba Afonso Pena,-25.5285,-49.1758
SBPA,Porto Alegre,-29.9939,-51.1714
SBRF,Recife,-8.1265,-34.9236
SBFZ,Fortaleza,-3.7763,-38.5326
SBCF,Confins,-19.6244,-43.9719
SBKP,Viracopos,-23.0074,-47.1345
